[
  { "name": "Gunung Rinjani", "latitude": -8.4116, "longitude": 116.4575, "elevation_m": 3726 },
  { "name": "Gunung Semeru", "latitude": -8.1080, "longitude": 112.9228, "elevation_m": 3676 },
  { "name": "Gunung Kerinci", "latitude": -1.6976, "longitude": 101.2643, "elevation_m": 3805 },
  { "name": "Gunung Merbabu", "latitude": -7.4553, "longitude": 110.4381, "elevation_m": 3145 },
  { "name": "Gunung Merapi", "latitude": -7.5407, "longitude": 110.4461, "elevation_m": 2930 },
  { "name": "Gunung Slamet", "latitude": -7.2420, "longitude": 109.2086, "elevation_m": 3428 },
  { "name": "Gunung Sindoro", "latitude": -7.3002, "longitude": 109.9911, "elevation_m": 3136 },
  { "name": "Gunung Sumbing", "latitude": -7.3841, "longitude": 110.0704, "elevation_m": 3371 },
  { "name": "Gunung Lawu", "latitude": -7.6258, "longitude": 111.1925, "elevation_m": 3265 },
  { "name": "Gunung Arjuno", "latitude": -7.7252, "longitude": 112.5975, "elevation_m": 3339 },
  { "name": "Gunung Welirang", "latitude": -7.7355, "longitude": 112.5706, "elevation_m": 3156 },
  { "name": "Gunung Kawi", "latitude": -7.8758, "longitude": 112.4964, "elevation_m": 2551 },
  { "name": "Gunung Panderman", "latitude": -7.8983, "longitude": 112.5042, "elevation_m": 2045 },
  { "name": "Gunung Penanggungan", "latitude": -7.6167, "longitude": 112.6000, "elevation_m": 1653 },
  { "name": "Gunung Bromo", "latitude": -7.9425, "longitude": 112.9530, "elevation_m": 2329 },
  { "name": "Gunung Ijen", "latitude": -8.0586, "longitude": 114.2422, "elevation_m": 2799 },
  { "name": "Gunung Raung", "latitude": -8.1256, "longitude": 114.0424, "elevation_m": 3332 },
  { "name": "Gunung Agung", "latitude": -8.3420, "longitude": 115.5085, "elevation_m": 3031 },
  { "name": "Gunung Batur", "latitude": -8.2396, "longitude": 115.3755, "elevation_m": 1717 },
  { "name": "Gunung Ciremai", "latitude": -6.8928, "longitude": 108.4023, "elevation_m": 3078 },
  { "name": "Gunung Papandayan", "latitude": -7.3208, "longitude": 107.7306, "elevation_m": 2665 },
  { "name": "Gunung Guntur", "latitude": -7.1525, "longitude": 107.8408, "elevation_m": 2249 },
  { "name": "Gunung Galunggung", "latitude": -7.2500, "longitude": 108.0500, "elevation_m": 2168 },
  { "name": "Gunung Tangkuban Perahu", "latitude": -6.7606, "longitude": 107.6091, "elevation_m": 2084 },
  { "name": "Gunung Salak", "latitude": -6.7200, "longitude": 106.7300, "elevation_m": 2211 },
  { "name": "Gunung Gede", "latitude": -6.7700, "longitude": 106.9800, "elevation_m": 2958 },
  { "name": "Gunung Pangrango", "latitude": -6.7800, "longitude": 106.9800, "elevation_m": 3019 },
  { "name": "Gunung Malabar", "latitude": -7.1400, "longitude": 107.6200, "elevation_m": 2343 },
  { "name": "Gunung Halimun", "latitude": -6.7333, "longitude": 106.5333, "elevation_m": 1929 },
  { "name": "Gunung Dempo", "latitude": -4.0200, "longitude": 103.1300, "elevation_m": 3173 },
  { "name": "Gunung Marapi", "latitude": -0.3811, "longitude": 100.4742, "elevation_m": 2891 },
  { "name": "Gunung Talang", "latitude": -0.9831, "longitude": 100.6792, "elevation_m": 2597 },
  { "name": "Gunung Singgalang", "latitude": -0.4000, "longitude": 100.3333, "elevation_m": 2877 },
  { "name": "Gunung Sibayak", "latitude": 3.2380, "longitude": 98.5080, "elevation_m": 2212 },
  { "name": "Gunung Sinabung", "latitude": 3.1700, "longitude": 98.3900, "elevation_m": 2460 },
  { "name": "Gunung Pulosari", "latitude": -6.3100, "longitude": 105.9900, "elevation_m": 1346 },
  { "name": "Gunung Karang", "latitude": -6.2833, "longitude": 106.0500, "elevation_m": 1778 },
  { "name": "Gunung Krakatau", "latitude": -6.1020, "longitude": 105.4230, "elevation_m": 813 },
  { "name": "Gunung Tambora", "latitude": -8.2470, "longitude": 118.0000, "elevation_m": 2850 },
  { "name": "Gunung Sangeang Api", "latitude": -8.2000, "longitude": 119.0700, "elevation_m": 1949 },
  { "name": "Gunung Soputan", "latitude": 1.1120, "longitude": 124.7300, "elevation_m": 1784 },
  { "name": "Gunung Lokon", "latitude": 1.3580, "longitude": 124.7920, "elevation_m": 1580 },
  { "name": "Gunung Klabat", "latitude": 1.4810, "longitude": 125.0300, "elevation_m": 1995 },
  { "name": "Gunung Gamalama", "latitude": 0.8000, "longitude": 127.3250, "elevation_m": 1715 },
  { "name": "Gunung Dukono", "latitude": 1.6930, "longitude": 127.8940, "elevation_m": 1229 },
  { "name": "Gunung Ibu", "latitude": 1.4880, "longitude": 127.6420, "elevation_m": 1325 },
  { "name": "Gunung Lewotobi", "latitude": -8.5300, "longitude": 122.7800, "elevation_m": 1703 },
  { "name": "Gunung Egon", "latitude": -8.6720, "longitude": 122.4500, "elevation_m": 1703 },
  { "name": "Gunung Inerie", "latitude": -8.8620, "longitude": 120.9500, "elevation_m": 2245 },
  { "name": "Gunung Binaiya", "latitude": -3.1833, "longitude": 129.4667, "elevation_m": 3055 }
]
